number,status,lat,lon,angle,departure_time,arrival_time,airport,direction
AR1011,finished,-27.445,-58.762,7.540454,1734024717,1734035517,CNQ,arrival;1734111118
AR1515,finished,-28.448,-65.78,277.86725,1734024717,1734039117,CTC,arrival;1734111119
AR9101,finished,-41.151,-71.158,143.75551,1734111117,1734121917,BRC,arrival;1734111256
AR1616,,-49.81258629650121,-69.03805098222193,95.54795,1734111117,1734125517,RGL,arrival;1734111332
AR9900,,-24.392,-65.097,127.3506,1734197517,1734200217,SLA,arrival;1734111334
AR1616,,-49.81258629650121,-69.03805098222193,95.54795,1734111117,1734125517,CTC,departure;1734111332
AR3344,,-33.39730051452678,-64.57332049571883,278.70145,1734111117,1734125517,USH,departure;1734111333
AR1122,,-41.151,-71.158,331.5561,1734197517,1734208317,BRC,departure;1734111334
